<?xml version="1.0" encoding="UTF-8"?>
<kml xmlns="http://earth.google.com/kml/2.x">
	<Placemark>
        <name>Sigurna kuca</name>
        <description>Attached to the ground. Intelligently places itself at the
          height of the underlying terrain.</description>
        <Point>
          <coordinates>21.903198, 43.316024,0</coordinates>
        </Point>
    </Placemark>
	
	<Placemark>
        <name>Policija</name>
        <description>Attached to the ground. Intelligently places itself at the
          height of the underlying terrain.</description>
        <Point>
          <coordinates>21.887485, 43.32093,0</coordinates>
        </Point>
    </Placemark>
	
	<Placemark>
        <name>Banka1</name>
        <description>1</description>
        <Point>
          <coordinates>21.89606, 43.318866,0</coordinates>
        </Point>
    </Placemark>
	
	<Placemark>
        <name>Banka2</name>
        <description>2</description>
        <Point>
          <coordinates>21.89028, 43.314432,0</coordinates>
        </Point>
    </Placemark>
	
	<Placemark>
        <name>Menjacnica1</name>
        <description>3</description>
        <Point>
          <coordinates>21.897081,43.316785,0</coordinates>
        </Point>
    </Placemark>
	
	<Placemark>
        <name>Menjacnica2</name>
        <description>4</description>
        <Point>
          <coordinates>21.902516,43.32374,0</coordinates>
        </Point>
    </Placemark>
	
	<Placemark>
        <name>Zlatara</name>
        <description>5</description>
        <Point>
          <coordinates>21.891954,43.31821,0</coordinates>
        </Point>
    </Placemark>
	
	<Placemark>
        <name>Luk i strela</name>
        <description>Predmet 1</description>
        <Point>
          <coordinates>21.894931,43.318152,0</coordinates>
        </Point>
    </Placemark>
	
	<Placemark>
        <name>Kljuc</name>
        <description>Predmet 2</description>
        <Point>
          <coordinates>21.899432,43.322615,0</coordinates>
        </Point>
    </Placemark>
	
	<Placemark>
        <name>Cekic</name>
        <description>Predmet 3</description>
        <Point>
          <coordinates>21.893638,43.32043,0</coordinates>
        </Point>
    </Placemark>
	
	<Placemark>
        <name>Alat</name>
        <description>Predmet 4</description>
        <Point>
          <coordinates>21.898316,43.319602,0</coordinates>
        </Point>
    </Placemark>
	
	<Placemark>
        <name>Lupa</name>
        <description>Predmet 5</description>
        <Point>
          <coordinates>21.891557,43.316105,0</coordinates>
        </Point>
    </Placemark>
	
	<Placemark>
        <name>Okular</name>
        <description>Predmet 6</description>
        <Point>
          <coordinates>21.903466,43.317885,0</coordinates>
        </Point>
    </Placemark>
	
	<Placemark>
        <name>Kompjuter</name>
        <description>Predmet 7</description>
        <Point>
          <coordinates>21.90488,43.322574,0</coordinates>
        </Point>
    </Placemark>
	
	<Placemark>
        <name>Sedativi</name>
        <description>Predmet 8</description>
        <Point>
          <coordinates>21.895698,43.323677,0</coordinates>
        </Point>
    </Placemark>
	
	<Placemark>
        <name>Aparat za gasenje</name>
        <description>Predmet 9</description>
        <Point>
          <coordinates>21.898203,43.315177,0</coordinates>
        </Point>
    </Placemark>
	
	<Placemark>
        <name>Pistolj</name>
        <description>Predmet 10</description>
        <Point>
          <coordinates>21.892903,43.321469,0</coordinates>
        </Point>
    </Placemark>
	
	<Placemark>
        <name>Night vision</name>
        <description>Predmet 11</description>
        <Point>
          <coordinates>21.907272,43.322734,0</coordinates>
        </Point>
    </Placemark>
	
	<Placemark>
        <name>Puska</name>
        <description>Predmet 12</description>
        <Point>
          <coordinates>21.901578,43.319493,0</coordinates>
        </Point>
    </Placemark>
 
	<Placemark>
        <name>Mobilni</name>
        <description>Predmet 13</description>
        <Point>
          <coordinates>21.90106,43.32547,0</coordinates>
        </Point>
    </Placemark>

	<Placemark>
        <name>Fotoaparat</name>
        <description>Predmet 14</description>
        <Point>
          <coordinates>21.889464,43.324124,0</coordinates>
        </Point>
    </Placemark>
 
	<Placemark>
        <name>Dokument</name>
        <description>Predmet 15</description>
        <Point>
          <coordinates>21.903646,43.320732,0</coordinates>
        </Point>
    </Placemark>
 
	<Placemark>
        <name>Pancir</name>
        <description>Predmet 16</description>
        <Point>
          <coordinates>21.896288,43.320052,0</coordinates>
        </Point>
    </Placemark>
 
	<Placemark>
        <name>Ometac</name>
        <description>Predmet 17</description>
        <Point>
          <coordinates>21.892539,43.323225,0</coordinates>
        </Point>
    </Placemark>
</kml>
